venue_name,city,venue_lat,venue_long
"Aurora Stadium, Launceston",Launceston,-41.43876,147.13467
Perth Stadium,Perth,-31.9457271,115.8699183
"Ted Summerton Reserve, Moe",Moe,-38.1825088,146.257197
"University of Tasmania Stadium, Launceston",Launceston,-41.4259627,147.1388579
"North Sydney Oval, Sydney",Sydney,-33.831888,151.2093253
"Shere Bangla National Stadium, Mirpur",Dhaka,23.99511,90.32359
"Central Broward Regional Park Stadium Turf Ground, Lauderhill",Lauderhill,26.14036,-80.21338
"Brian Lara Stadium, Tarouba, Trinidad",Trinidad,10.27479,-61.43422
"Brian Lara Stadium, Tarouba, Trinidad",Tarouba,10.27479,-61.43422
"Bharat Ratna Shri Atal Bihari Vajpayee Ekana Cricket Stadium, Lucknow",Lucknow,26.8112572,81.0167842
"Barsapara Cricket Stadium, Guwahati",Guwahati,26.1844,91.7458
"Maharaja Yadavindra Singh International Cricket Stadium, Mullanpur",Mohali,30.67995,76.72211
"Shaheed Veer Narayan Singh International Stadium, Raipur",Raipur,21.2033903,81.8230192
"Skarpnack 1, Stockholm",Stockholm,59.2957494,18.1082259
"Skarpnack 2, Stockholm",Stockholm,59.296744,18.0982035
"Gymkhana Club Ground, Nairobi",Nairobi,-1.28333,36.81667
Sano International Cricket Ground,,36.3572,139.5923
"Tafawa Balewa Square Cricket Oval, Lagos",Lagos,6.45407,3.39467
Gahanga International Cricket Stadium. Rwanda,,-2.0295414,30.1071343
"Albert Park 1, Suva",Suva,-18.147393,178.4250507
"Albert Park 2, Suva",Suva,-18.147393,178.4250507
"Sportpark Maarschalkerweerd, Utrecht",Utrecht,52.09083,5.12222
"Sportpark Westvliet, Voorburg",The Hague,52.07667,4.29861
"VRA Ground, Amstelveen",Amstelveen,52.30083,4.86389
"Hazelaarweg, Rotterdam",Rotterdam,51.9673947,4.4800544
"Church Street Park, Morrisville",Morrisville,35.8449871,-78.8442191
"Mission Road Ground, Mong Kok, Hong Kong",Hong Kong,22.31935,114.17136
Hong Kong Cricket Club,,22.3050658,114.1740021
"UKM-YSD Cricket Oval, Bangi",Bangi,2.9347886,101.783381
"Bayuemas Oval, Kuala Lumpur",Kuala Lumpur,3.1412,101.68653
"Botswana Cricket Association Oval 2, Gaborone",Gaborone,-24.65451,25.90859
"Botswana Cricket Association Oval 1, Gaborone",Gaborone,-24.65451,25.90859
"Friendship Oval, Dasmarinas",Dasmarinas,14.32944,120.93667
"Moara Vlasiei Cricket Ground, Ilfov County",Ilfov County,44.58333,26.16667
"Sea Breeze Oval, Hamilton",Hamilton,31.70377,-98.12392
"Sheikh Zayed Stadium Nursery 1, Abu Dhabi",Abu Dhabi,24.46667,54.36667
"ICC Academy Ground No 2, Dubai",Dubai,25.0657,55.17128
"ICC Academy Ground No 2, Dubai",Abu Dhabi,23.66667,54.0
"Sheikh Zayed Stadium Nursery 2, Abu Dhabi",Abu Dhabi,24.46667,54.36667
"Yeonhui Cricket Ground, Incheon",Incheon,37.5400895,126.6684868
"Civil Service Cricket Club, Stormont, Belfast",Belfast,54.58333,-5.93333
"Bready Cricket Club, Magheramason, Bready",Londonderry,42.86509,-71.37395
"New Williamfield No1 Oval, Stirling",Stirling,56.11903,-3.93682
"Grange Cricket Club Ground, Raeburn Place, Edinburgh",Edinburgh,55.9587435,-3.2099989
"Goldenacre, Edinburgh",Edinburgh,55.9708157,-3.2078125
"Clontarf Cricket Club Ground, Dublin",Dublin,53.33306,-6.24889
"Queen's Park, Chesterfield",Chesterfield,53.2331484,-1.433942
"Old Deer Park, Richmond",Richmond,51.4670716,-0.3100054
"Radlett Cricket Club, Radlett",Radlett,51.6759945,-0.3088817
"Merchant Taylors' School Ground, Northwood",Northwood,50.74102,-1.31192
"Shaheed Veer Narayan Singh International Stadium, Raipur",,21.2033903,81.8230192
"Dr PVG Raju ACA Sports Complex, Vizianagaram",,18.0648231,83.4065571
"Devineni Venkata Ramana Praneetha Ground, Mulapadu",,16.6088,80.4702
"Chukkapalli Pitchaiah Cricket Ground, Mulapadu",,16.6088,80.4702
"Lalabhai Contractor Stadium, Surat",,20.91667,73.05
"CB Patel International Cricket Stadium, Surat",,20.91667,73.05
"Emerald High School Ground, Indore",,22.71792,75.8333
"DRIEMS Ground, Tangi, Cuttack",,20.56143,85.99182
"Palam A Ground, Model Sports Complex, Delhi",,28.65381,77.22897
"Palam B Ground, Model Sports Complex, Delhi",,28.65381,77.22897
"St Xavier's College Ground, Thumba",,8.5620,076.8495
"Greenfield International Stadium, Thiruvananthapuram",,8.5714901,76.8844035
Government Model Senior Secondary School,,30.7121573,76.7234647
"Bandra Kurla Complex, Mumbai",,19.067115,72.8657245
"KSCA Cricket (2) Ground, Alur",,12.97601,75.98485
"KSCA Cricket (3) Ground, Alur",,12.97601,75.98485
"Jadavpur University Complex, Kolkata",,22.56263,88.36304
"F.B. Colony Ground, Vadodara",,22.29941,73.20812
"Sri Sivasubramaniya Nadar College of Engineering Ground, Chennai",,13.08784,80.27847
"India Cement Limited Guru Nanak College Ground, Chennai",,13.08784,80.27847
"Bharat Ratna Shri Atal Bihari Vajpayee Ekana Cricket Stadium, Lucknow",,26.8112572,81.0167842
Ekana Cricket Stadium B Ground,,26.8113,81.0169
"Barsapara Cricket Stadium, Guwahati",,26.1844,91.7458
"Gurgaon Cricket Ground (SRNCC), Sultanpur",,26.25996,82.07314
"CH Bansi Lal Cricket Stadium, Lahli, Rohtak",,28.8524,76.45472
"Andhra Cricket Assocition Grounds, Mulapadu",,16.6088,80.4702
"Andhra Cricket Association Stadium, Mangalagiri",,16.40348,80.55846
"Abhimanyu Cricket Academy, Dehradun",Dehra Dun,30.32295,78.03168
"St Paul's College Ground, Kochi",,9.93988,76.26022
"Greenfield International Stadium, Thiruvananthapuram",Thiruvananthapuram,8.5714901,76.8844035
"Ekana International Cricket Stadium, Lucknow",Lucknow,26.8112562,81.0178881
"Bready Cricket Club, Magheramason, Bready",Bready,54.9154,-7.41926
"Bready Cricket Club, Magheramason, Bready",Derry,42.88064,-71.32729
Al Amerat Cricket Ground Oman Cricket (Ministry Turf 1),Al Amarat,23.52417,58.4975
"Amini Park, Port Moresby",Port Moresby,-9.4733843,147.2016264
"Kyambogo Cricket Oval, Kampala",Kampala,0.31628,32.58219
"Lugogo Cricket Oval, Kampala",Kampala,0.31628,32.58219
"Indian Association Ground, Singapore",Singapore,1.3172177,103.8554165
"Sportpark Westvliet, The Hague",The Hague,52.0669331,4.3724956
"White Hill Field, Sandys Parish",Hamilton,43.25011,-79.84963
"United Cricket Club Ground, Windhoek",Windhoek,-22.75,17.08333
La Manga Club Bottom Ground,Murcia,37.98704,-1.13004
"Desert Springs Cricket Ground, Almeria",Almeria,37.2526943,-1.8231444
"Tribhuvan University International Cricket Ground, Kirtipur",Kirtipur,27.67988,85.27544
Al Amerat Cricket Ground Oman Cricket (Ministry Turf 2),Al Amarat,23.52417,58.4975
"Terdthai Cricket Ground, Bangkok",Bangkok,13.75398,100.50144
Pierre Werner Cricket Ground,Walferdange,49.6643189,6.1278481
"Moara Vlasiei Cricket Ground, Ilfov County",,44.58333,26.16667
"Coolidge Cricket Ground, Antigua",Coolidge,17.1409666,-61.7948025
"Scott Page Field, Vinor",Prague,50.08804,14.42076
"National Sports Academy, Sofia",Sofia,42.65,23.63333
Bayer Uerdingen Cricket Ground,Krefeld,51.3653292,6.6305686
"Castle Avenue, Dublin",Dublin,53.3692788,-6.203237
Gucherre Cricket Ground,Albergaria,40.69318,-8.47994
"Gahanga International Cricket Stadium, Rwanda",Kigali City,-1.98658,30.06907
Kerava National Cricket Ground,Kerava,60.391243,25.1163573
Entebbe Cricket Oval,Entebbe,0.06444,32.44694
Happy Valley Ground,Episkopi,34.6722849,32.8214704
Gahanga International Cricket Stadium. Rwanda,Kigali City,-2.0295414,30.1071343
Integrated Polytechnic Regional Centre,Kigali City,-1.98658,30.06907
University of Lagos Cricket Oval,Lagos,6.5150095,3.3893947
"West End Park International Cricket Stadium, Doha",Doha,25.27932,51.52245
"Meersen, Gent",Ghent,51.047785,3.7815313
"Royal Brussels Cricket Club Ground, Waterloo",Waterloo,50.71469,4.3991
Tikkurila Cricket Ground,Vantaa,60.29414,25.04099
Lisicji Jarak Cricket Ground,Belgrade,44.80401,20.46513
Vanuatu Cricket Ground,Port Vila,-17.73381,168.32188
Sano International Cricket Ground,Sano,36.31667,139.58333
"Mission Road Ground, Mong Kok, Hong Kong",Mong Kok,22.31935,114.17136
Santarem Cricket Ground,Albergaria,40.69318,-8.47994
Europa Sports Complex,Gibraltar,42.09504,-83.18965
"Solvangs Park, Glostrup",Copenhagen,55.67594,12.56553
"GB Oval, Szodliget",Szodliget,47.73259,19.14749
Zhejiang University of Technology Cricket Field,Hangzhou,30.29365,120.16142
Mulpani Cricket Ground,Kathmandu,27.718822,85.391339
Udayana Cricket Ground,Bali,-8.5,115.0
"Nassau County International Cricket Stadium, New York",New York,40.7299492,-73.5758444
University of Doha for Science and Technology,Doha,25.27932,51.52245
"Achimota Senior Secondary School A Field, Accra",Accra,5.55602,-0.1969
"Achimota Senior Secondary School B Field, Accra",Accra,5.55602,-0.1969
Prairie View Cricket Complex,Houston,29.76328,-95.36327
La Manga Club Top Ground,Murcia,37.98704,-1.13004
Los Reyes Polo Club,Guacima,9.9526271,-84.2671899
Dreux Sport Cricket Club,Dreux,48.73333,1.36667
Roma Cricket Ground,Spinaceto,41.933964,12.454297
"Simar Cricket Ground, Rome",Rome,41.89193,12.51133
"Shrimant Madhavrao Scindia Cricket Stadium, Gwalior",Gwalior,26.22983,78.17337
"Sikh Union Club Ground, Nairobi",Nairobi,-1.28333,36.81667
"Mladost Cricket Ground, Zagreb",Zagreb,45.81444,15.97798
"Faleata Oval No 2, Apia",Apia,-13.83333,-171.76666
"Selangor Turf Club, Kuala Lumpur",Kuala Lumpur,3.0478799,101.7133644
"YSD-UKM Cricket Oval, Bangi",Bangi,2.9347886,101.783381
Sao Fernando Polo and Cricket Club,Seropedica,-22.74389,-43.7075
Gelephu International Cricket Ground,Gelephu,26.870556,90.485558
"TCA Oval, Blantyre",Blantyre,-15.78499,35.00854
"Nigeria Cricket Federation Oval 1, Abuja",Lagos,6.45407,3.39467
"Nigeria Cricket Federation Oval 2, Abuja",Lagos,6.45407,3.39467
"Nigeria Cricket Federation Oval 1, Abuja",Abuja,9.05785,7.49508
"Nigeria Cricket Federation Oval 2, Abuja",Abuja,9.05785,7.49508
Singapore National Cricket Ground,Singapore,1.28967,103.85007
"Shere Bangla National Stadium, Mirpur",Mirpur,28.02271,69.54886
